Time(s),Target_Vx,Go1_Vx,Target_YawRate,Go1_YawRate,Target_Roll,Go1_Roll,Stab_Roll,Obj_Roll,Target_Pitch,Go1_Pitch,Stab_Pitch,Obj_Pitch,Go1_Accel_X,Go1_Accel_Y,Go1_Accel_Z
0.001,0.300,0.018,0.000,0.023,0.000,2.120,0.000,0.000,0.000,1.090,0.000,0.000,-0.077,0.364,9.761
0.011,0.300,0.018,0.000,0.023,0.000,2.120,0.000,0.000,0.000,1.090,0.000,0.000,-0.077,0.364,9.761
0.021,0.300,0.020,0.000,0.037,0.000,2.098,0.000,0.000,0.000,1.094,0.000,0.000,-0.175,0.402,9.745
0.032,0.300,0.020,0.000,0.037,0.000,2.098,0.000,0.000,0.000,1.094,0.000,0.000,-0.175,0.402,9.745
0.042,0.300,0.021,0.000,0.017,0.000,2.083,0.000,0.000,0.000,1.104,0.000,0.000,-0.148,0.362,9.636
0.052,0.300,0.021,0.000,0.017,0.000,2.083,0.000,0.000,0.000,1.104,0.000,0.000,-0.148,0.362,9.636
0.063,0.300,0.021,0.000,-0.007,0.000,2.028,0.000,0.000,0.000,1.087,0.000,0.000,1.522,2.971,6.238
0.074,0.300,0.021,0.000,-0.007,0.000,2.028,0.000,0.000,0.000,1.087,0.000,0.000,1.522,2.971,6.238
0.084,0.300,-0.003,0.000,0.020,0.000,2.071,0.000,0.000,0.000,0.881,0.000,0.000,-5.914,-0.281,10.332
0.095,0.300,-0.046,0.000,-0.005,0.000,2.170,0.000,0.000,0.000,1.074,0.000,0.000,-4.055,0.165,14.756
0.105,0.300,-0.046,0.000,-0.005,0.000,2.170,0.000,0.000,0.000,1.074,0.000,0.000,-4.055,0.165,14.756
0.116,0.300,-0.061,0.000,-0.035,0.000,1.984,0.000,0.000,0.000,1.358,0.000,0.000,-0.442,0.502,7.934
0.126,0.300,-0.061,0.000,-0.035,0.000,1.984,0.000,0.000,0.000,1.358,0.000,0.000,-0.442,0.502,7.934
0.137,0.300,-0.072,0.000,-0.038,0.000,1.883,0.000,0.000,0.000,1.236,0.000,0.000,-0.302,1.287,3.237
0.147,0.300,-0.072,0.000,-0.038,0.000,1.883,0.000,0.000,0.000,1.236,0.000,0.000,-0.302,1.287,3.237
0.158,0.300,-0.069,0.000,-0.105,0.000,1.971,0.000,0.000,0.000,0.957,0.000,0.000,0.060,0.056,6.508
0.168,0.300,-0.069,0.000,-0.105,0.000,1.971,0.000,0.000,0.000,0.957,0.000,0.000,0.060,0.056,6.508
0.179,0.300,-0.047,0.000,0.068,0.000,1.954,0.000,0.000,0.000,0.536,0.000,0.000,3.177,-3.667,3.027
0.189,0.300,-0.047,0.000,0.068,0.000,1.954,0.000,0.000,0.000,0.536,0.000,0.000,3.177,-3.667,3.027
0.200,0.300,-0.039,0.000,0.001,0.000,2.129,0.000,0.000,0.000,0.347,0.000,0.000,2.827,-3.441,19.585
0.210,0.300,-0.039,0.000,0.001,0.000,2.129,0.000,0.000,0.000,0.347,0.000,0.000,2.827,-3.441,19.585
0.221,0.300,0.005,0.000,-0.044,0.000,1.452,0.000,0.000,0.000,0.061,0.000,0.000,-4.573,2.809,13.341
0.232,0.300,0.005,0.000,-0.044,0.000,1.452,0.000,0.000,0.000,0.061,0.000,0.000,-4.573,2.809,13.341
0.242,0.300,0.013,0.000,0.123,0.000,1.107,0.000,0.000,0.000,0.120,0.000,0.000,3.109,0.607,7.283
0.253,0.300,0.013,0.000,0.123,0.000,1.107,0.000,0.000,0.000,0.120,0.000,0.000,3.109,0.607,7.283
0.263,0.300,0.029,0.000,0.129,0.000,1.236,0.000,0.000,0.000,-0.028,0.000,0.000,0.760,0.813,10.322
0.274,0.300,0.029,0.000,0.129,0.000,1.236,0.000,0.000,0.000,-0.028,0.000,0.000,0.760,0.813,10.322
0.284,0.300,0.042,0.000,0.264,0.000,1.198,0.000,0.000,0.000,-0.329,0.000,0.000,1.355,-0.016,8.441
0.294,0.300,0.042,0.000,0.264,0.000,1.198,0.000,0.000,0.000,-0.329,0.000,0.000,1.355,-0.016,8.441
0.305,0.300,0.049,0.000,0.228,0.000,1.187,0.000,0.000,0.000,-0.663,0.000,0.000,-0.320,2.318,8.595
0.315,0.300,0.049,0.000,0.228,0.000,1.187,0.000,0.000,0.000,-0.663,0.000,0.000,-0.320,2.318,8.595
0.326,0.300,0.049,0.000,0.118,0.000,1.000,0.000,0.000,0.000,-1.068,0.000,0.000,-0.568,2.184,7.987
0.336,0.300,0.049,0.000,0.118,0.000,1.000,0.000,0.000,0.000,-1.068,0.000,0.000,-0.568,2.184,7.987
0.346,0.300,0.068,0.000,0.038,0.000,0.791,0.000,0.000,0.000,-1.229,0.000,0.000,1.638,-0.321,11.219
0.356,0.300,0.068,0.000,0.038,0.000,0.791,0.000,0.000,0.000,-1.229,0.000,0.000,1.638,-0.321,11.219
0.366,0.300,0.075,0.000,0.174,0.000,1.195,0.000,0.000,0.000,-0.822,0.000,0.000,3.255,-3.399,2.552
0.377,0.300,0.231,0.000,-0.059,0.000,1.448,0.000,0.000,0.000,-0.488,0.000,0.000,-3.383,-5.924,28.364
0.387,0.300,0.231,0.000,-0.059,0.000,1.448,0.000,0.000,0.000,-0.488,0.000,0.000,-3.383,-5.924,28.364
0.397,0.300,0.244,0.000,0.027,0.000,0.980,0.000,0.000,0.000,0.162,0.000,0.000,-1.403,3.488,9.707
0.407,0.300,0.244,0.000,0.027,0.000,0.980,0.000,0.000,0.000,0.162,0.000,0.000,-1.403,3.488,9.707
0.417,0.300,0.247,0.000,0.025,0.000,0.676,0.000,0.000,0.000,0.379,0.000,0.000,0.298,0.042,13.237
0.428,0.300,0.247,0.000,0.025,0.000,0.676,0.000,0.000,0.000,0.379,0.000,0.000,0.298,0.042,13.237
0.438,0.300,0.243,0.000,-0.150,0.000,0.323,0.000,0.000,0.000,0.248,0.000,0.000,0.468,0.729,5.502
0.448,0.300,0.243,0.000,-0.150,0.000,0.323,0.000,0.000,0.000,0.248,0.000,0.000,0.468,0.729,5.502
0.458,0.300,0.252,0.000,-0.201,0.000,0.278,0.000,0.000,0.000,-0.011,0.000,0.000,-0.015,-1.007,7.136
0.468,0.300,0.252,0.000,-0.201,0.000,0.278,0.000,0.000,0.000,-0.011,0.000,0.000,-0.015,-1.007,7.136
0.478,0.300,0.267,0.000,-0.205,0.000,0.339,0.000,0.000,0.000,-0.250,0.000,0.000,0.730,0.906,9.704
0.489,0.300,0.267,0.000,-0.205,0.000,0.339,0.000,0.000,0.000,-0.250,0.000,0.000,0.730,0.906,9.704
0.499,0.300,0.328,0.000,-0.049,0.000,0.562,0.000,0.000,0.000,-0.492,0.000,0.000,2.256,-2.025,7.704
0.509,0.300,0.328,0.000,-0.049,0.000,0.562,0.000,0.000,0.000,-0.492,0.000,0.000,2.256,-2.025,7.704
0.519,0.300,0.349,0.000,0.024,0.000,0.948,0.000,0.000,0.000,-0.603,0.000,0.000,2.736,-4.006,18.724
0.529,0.300,0.349,0.000,0.024,0.000,0.948,0.000,0.000,0.000,-0.603,0.000,0.000,2.736,-4.006,18.724
0.540,0.300,0.337,0.000,-0.057,0.000,0.309,0.000,0.000,0.000,-0.686,0.000,0.000,-2.687,-0.219,6.732
0.550,0.300,0.337,0.000,-0.057,0.000,0.309,0.000,0.000,0.000,-0.686,0.000,0.000,-2.687,-0.219,6.732
0.560,0.300,0.325,0.000,0.013,0.000,0.162,0.000,0.000,0.000,-0.502,0.000,0.000,-1.882,0.093,11.815
0.570,0.300,0.325,0.000,0.013,0.000,0.162,0.000,0.000,0.000,-0.502,0.000,0.000,-1.882,0.093,11.815
0.581,0.300,0.308,0.000,0.042,0.000,0.196,0.000,0.000,0.000,-0.395,0.000,0.000,1.084,0.167,9.441
0.591,0.300,0.308,0.000,0.042,0.000,0.196,0.000,0.000,0.000,-0.395,0.000,0.000,1.084,0.167,9.441
0.601,0.300,0.297,0.000,0.085,0.000,0.369,0.000,0.000,0.000,-0.353,0.000,0.000,-0.330,-0.297,7.875
0.612,0.300,0.297,0.000,0.085,0.000,0.369,0.000,0.000,0.000,-0.353,0.000,0.000,-0.330,-0.297,7.875
0.622,0.300,0.281,0.000,0.115,0.000,0.411,0.000,0.000,0.000,-0.433,0.000,0.000,-0.521,-0.326,7.772
0.632,0.300,0.281,0.000,0.115,0.000,0.411,0.000,0.000,0.000,-0.433,0.000,0.000,-0.521,-0.326,7.772
0.642,0.300,0.283,0.000,0.057,0.000,0.254,0.000,0.000,0.000,-0.633,0.000,0.000,1.543,1.186,9.794
0.653,0.300,0.283,0.000,0.057,0.000,0.254,0.000,0.000,0.000,-0.633,0.000,0.000,1.543,1.186,9.794
0.663,0.300,0.302,0.000,-0.032,0.000,-0.067,0.000,0.000,0.000,-0.877,0.000,0.000,0.487,0.742,11.044
0.674,0.300,0.302,0.000,-0.032,0.000,-0.067,0.000,0.000,0.000,-0.877,0.000,0.000,0.487,0.742,11.044
0.684,0.300,0.307,0.000,-0.133,0.000,0.304,0.000,0.000,0.000,-0.463,0.000,0.000,3.711,-3.628,-4.792
0.694,0.300,0.375,0.000,-0.062,0.000,0.444,0.000,0.000,0.000,0.058,0.000,0.000,-3.121,0.525,16.487
0.704,0.300,0.375,0.000,-0.062,0.000,0.444,0.000,0.000,0.000,0.058,0.000,0.000,-3.121,0.525,16.487
0.715,0.300,0.334,0.000,-0.062,0.000,0.098,0.000,0.000,0.000,0.537,0.000,0.000,-0.313,0.235,11.369
0.725,0.300,0.334,0.000,-0.062,0.000,0.098,0.000,0.000,0.000,0.537,0.000,0.000,-0.313,0.235,11.369
0.735,0.300,0.322,0.000,-0.021,0.000,-0.307,0.000,0.000,0.000,0.680,0.000,0.000,1.575,0.428,8.658
0.746,0.300,0.322,0.000,-0.021,0.000,-0.307,0.000,0.000,0.000,0.680,0.000,0.000,1.575,0.428,8.658
0.756,0.300,0.321,0.000,0.007,0.000,-0.467,0.000,0.000,0.000,0.601,0.000,0.000,-0.077,0.716,4.509
0.766,0.300,0.321,0.000,0.007,0.000,-0.467,0.000,0.000,0.000,0.601,0.000,0.000,-0.077,0.716,4.509
0.776,0.300,0.302,0.000,-0.025,0.000,-0.406,0.000,0.000,0.000,0.434,0.000,0.000,0.249,-0.622,6.468
0.787,0.300,0.302,0.000,-0.025,0.000,-0.406,0.000,0.000,0.000,0.434,0.000,0.000,0.249,-0.622,6.468
0.797,0.300,0.308,0.000,0.006,0.000,-0.171,0.000,0.000,0.000,0.200,0.000,0.000,1.176,-1.270,7.684
0.807,0.300,0.308,0.000,0.006,0.000,-0.171,0.000,0.000,0.000,0.200,0.000,0.000,1.176,-1.270,7.684
0.817,0.300,0.335,0.000,0.072,0.000,0.191,0.000,0.000,0.000,-0.012,0.000,0.000,2.102,-1.998,5.716
0.827,0.300,0.335,0.000,0.072,0.000,0.191,0.000,0.000,0.000,-0.012,0.000,0.000,2.102,-1.998,5.716
0.838,0.300,0.318,0.000,-0.007,0.000,0.752,0.000,0.000,0.000,-0.130,0.000,0.000,3.468,-4.339,10.504
0.848,0.300,0.318,0.000,-0.007,0.000,0.752,0.000,0.000,0.000,-0.130,0.000,0.000,3.468,-4.339,10.504
0.858,0.300,0.325,0.000,-0.053,0.000,0.237,0.000,0.000,0.000,-0.313,0.000,0.000,-2.743,-1.192,13.185
0.868,0.300,0.325,0.000,-0.053,0.000,0.237,0.000,0.000,0.000,-0.313,0.000,0.000,-2.743,-1.192,13.185
0.879,0.300,0.321,0.000,-0.001,0.000,0.158,0.000,0.000,0.000,-0.046,0.000,0.000,0.107,0.642,6.376
0.889,0.300,0.321,0.000,-0.001,0.000,0.158,0.000,0.000,0.000,-0.046,0.000,0.000,0.107,0.642,6.376
0.899,0.300,0.316,0.000,0.059,0.000,0.370,0.000,0.000,0.000,0.066,0.000,0.000,0.222,0.743,10.658
0.910,0.300,0.316,0.000,0.059,0.000,0.370,0.000,0.000,0.000,0.066,0.000,0.000,0.222,0.743,10.658
0.920,0.300,0.309,0.000,0.193,0.000,0.709,0.000,0.000,0.000,0.114,0.000,0.000,0.684,-0.048,7.124
0.930,0.300,0.309,0.000,0.193,0.000,0.709,0.000,0.000,0.000,0.114,0.000,0.000,0.684,-0.048,7.124
0.941,0.300,0.298,0.000,0.160,0.000,0.890,0.000,0.000,0.000,0.062,0.000,0.000,-0.862,0.726,7.785
0.951,0.300,0.298,0.000,0.160,0.000,0.890,0.000,0.000,0.000,0.062,0.000,0.000,-0.862,0.726,7.785
0.961,0.300,0.295,0.000,0.088,0.000,0.937,0.000,0.000,0.000,-0.058,0.000,0.000,0.921,1.217,7.957
0.971,0.300,0.295,0.000,0.088,0.000,0.937,0.000,0.000,0.000,-0.058,0.000,0.000,0.921,1.217,7.957
0.982,0.300,0.315,0.000,-0.060,0.000,0.603,0.000,0.000,0.000,-0.278,0.000,0.000,0.429,2.450,8.147
0.992,0.300,0.315,0.000,-0.060,0.000,0.603,0.000,0.000,0.000,-0.278,0.000,0.000,0.429,2.450,8.147
1.003,0.300,0.307,0.000,-0.038,0.000,1.099,0.000,0.000,0.000,0.138,0.000,0.000,5.191,-6.457,7.034
1.013,0.300,0.307,0.000,-0.038,0.000,1.099,0.000,0.000,0.000,0.138,0.000,0.000,5.191,-6.457,7.034
1.023,0.300,0.379,0.000,-0.110,0.000,0.986,0.000,0.000,0.000,0.279,0.000,0.000,-2.260,-0.085,11.052
1.033,0.300,0.354,0.000,-0.022,0.000,0.908,0.000,0.000,0.000,0.640,0.000,0.000,-0.236,0.893,10.805
1.044,0.300,0.354,0.000,-0.022,0.000,0.908,0.000,0.000,0.000,0.640,0.000,0.000,-0.236,0.893,10.805
1.054,0.300,0.346,0.000,-0.004,0.000,0.755,0.000,0.000,0.000,0.720,0.000,0.000,-0.093,-2.019,12.071
1.065,0.300,0.346,0.000,-0.004,0.000,0.755,0.000,0.000,0.000,0.720,0.000,0.000,-0.093,-2.019,12.071
1.075,0.300,0.336,0.000,-0.062,0.000,0.770,0.000,0.000,0.000,0.597,0.000,0.000,-1.038,0.942,5.375
1.085,0.300,0.336,0.000,-0.062,0.000,0.770,0.000,0.000,0.000,0.597,0.000,0.000,-1.038,0.942,5.375
1.095,0.300,0.315,0.000,-0.068,0.000,0.880,0.000,0.000,0.000,0.424,0.000,0.000,-0.325,0.228,6.758
1.106,0.300,0.315,0.000,-0.068,0.000,0.880,0.000,0.000,0.000,0.424,0.000,0.000,-0.325,0.228,6.758
1.116,0.300,0.320,0.000,-0.027,0.000,1.085,0.000,0.000,0.000,0.189,0.000,0.000,1.149,-1.477,11.306
1.126,0.300,0.320,0.000,-0.027,0.000,1.085,0.000,0.000,0.000,0.189,0.000,0.000,1.149,-1.477,11.306
1.136,0.300,0.351,0.000,0.105,0.000,1.352,0.000,0.000,0.000,0.011,0.000,0.000,0.329,-4.662,13.575
1.146,0.300,0.351,0.000,0.105,0.000,1.352,0.000,0.000,0.000,0.011,0.000,0.000,0.329,-4.662,13.575
1.157,0.300,0.355,0.000,0.044,0.000,1.690,0.000,0.000,0.000,-0.046,0.000,0.000,4.185,-3.102,8.263
1.167,0.300,0.355,0.000,0.044,0.000,1.690,0.000,0.000,0.000,-0.046,0.000,0.000,4.185,-3.102,8.263
1.177,0.300,0.345,0.000,-0.065,0.000,1.333,0.000,0.000,0.000,-0.105,0.000,0.000,-3.179,1.361,14.201
1.187,0.300,0.345,0.000,-0.065,0.000,1.333,0.000,0.000,0.000,-0.105,0.000,0.000,-3.179,1.361,14.201
1.198,0.300,0.366,0.000,-0.075,0.000,1.259,0.000,0.000,0.000,0.158,0.000,0.000,0.623,0.106,9.257
1.208,0.300,0.366,0.000,-0.075,0.000,1.259,0.000,0.000,0.000,0.158,0.000,0.000,0.623,0.106,9.257
1.218,0.300,0.348,0.000,-0.022,0.000,1.451,0.000,0.000,0.000,0.312,0.000,0.000,1.106,-0.029,8.195
1.229,0.300,0.348,0.000,-0.022,0.000,1.451,0.000,0.000,0.000,0.312,0.000,0.000,1.106,-0.029,8.195
1.239,0.300,0.345,0.000,0.028,0.000,1.700,0.000,0.000,0.000,0.330,0.000,0.000,-0.417,0.065,6.367
1.249,0.300,0.345,0.000,0.028,0.000,1.700,0.000,0.000,0.000,0.330,0.000,0.000,-0.417,0.065,6.367
1.260,0.300,0.332,0.000,0.034,0.000,1.789,0.000,0.000,0.000,0.291,0.000,0.000,-0.031,0.617,6.871
1.270,0.300,0.332,0.000,0.034,0.000,1.789,0.000,0.000,0.000,0.291,0.000,0.000,-0.031,0.617,6.871
1.280,0.300,0.339,0.000,0.076,0.000,1.790,0.000,0.000,0.000,0.116,0.000,0.000,1.597,1.524,11.004
1.291,0.300,0.339,0.000,0.076,0.000,1.790,0.000,0.000,0.000,0.116,0.000,0.000,1.597,1.524,11.004
1.301,0.300,0.365,0.000,-0.014,0.000,1.413,0.000,0.000,0.000,-0.137,0.000,0.000,1.254,0.575,13.698
1.311,0.300,0.365,0.000,-0.014,0.000,1.413,0.000,0.000,0.000,-0.137,0.000,0.000,1.254,0.575,13.698
1.322,0.300,0.362,0.000,-0.071,0.000,1.497,0.000,0.000,0.000,0.055,0.000,0.000,3.908,-2.730,-4.940
1.332,0.300,0.362,0.000,-0.071,0.000,1.497,0.000,0.000,0.000,0.055,0.000,0.000,3.908,-2.730,-4.940
1.342,0.300,0.394,0.000,-0.067,0.000,1.573,0.000,0.000,0.000,0.120,0.000,0.000,-2.937,0.021,13.343
1.353,0.300,0.369,0.000,-0.086,0.000,1.397,0.000,0.000,0.000,0.425,0.000,0.000,0.195,0.474,11.982
1.363,0.300,0.369,0.000,-0.086,0.000,1.397,0.000,0.000,0.000,0.425,0.000,0.000,0.195,0.474,11.982
1.373,0.300,0.362,0.000,-0.010,0.000,1.195,0.000,0.000,0.000,0.545,0.000,0.000,0.217,-1.702,9.639
1.384,0.300,0.362,0.000,-0.010,0.000,1.195,0.000,0.000,0.000,0.545,0.000,0.000,0.217,-1.702,9.639
1.394,0.300,0.358,0.000,-0.006,0.000,1.148,0.000,0.000,0.000,0.463,0.000,0.000,-1.071,0.600,5.648
1.404,0.300,0.358,0.000,-0.006,0.000,1.148,0.000,0.000,0.000,0.463,0.000,0.000,-1.071,0.600,5.648
1.414,0.300,0.342,0.000,-0.026,0.000,1.227,0.000,0.000,0.000,0.311,0.000,0.000,0.055,0.459,7.328
1.425,0.300,0.342,0.000,-0.026,0.000,1.227,0.000,0.000,0.000,0.311,0.000,0.000,0.055,0.459,7.328
1.435,0.300,0.352,0.000,0.032,0.000,1.380,0.000,0.000,0.000,0.113,0.000,0.000,0.795,-0.920,10.177
1.445,0.300,0.352,0.000,0.032,0.000,1.380,0.000,0.000,0.000,0.113,0.000,0.000,0.795,-0.920,10.177
1.455,0.300,0.382,0.000,0.120,0.000,1.674,0.000,0.000,0.000,-0.076,0.000,0.000,2.650,-3.109,12.670
1.465,0.300,0.382,0.000,0.120,0.000,1.674,0.000,0.000,0.000,-0.076,0.000,0.000,2.650,-3.109,12.670
1.475,0.300,0.373,0.000,-0.037,0.000,1.641,0.000,0.000,0.000,0.038,0.000,0.000,0.982,-3.214,19.434
1.486,0.300,0.373,0.000,-0.037,0.000,1.641,0.000,0.000,0.000,0.038,0.000,0.000,0.982,-3.214,19.434
1.496,0.300,0.372,0.000,-0.076,0.000,1.466,0.000,0.000,0.000,0.047,0.000,0.000,-4.673,-0.303,9.264
1.506,0.300,0.372,0.000,-0.076,0.000,1.466,0.000,0.000,0.000,0.047,0.000,0.000,-4.673,-0.303,9.264
1.516,0.300,0.369,0.000,-0.017,0.000,1.432,0.000,0.000,0.000,0.248,0.000,0.000,-1.913,2.245,7.707
1.526,0.300,0.369,0.000,-0.017,0.000,1.432,0.000,0.000,0.000,0.248,0.000,0.000,-1.913,2.245,7.707
1.536,0.300,0.353,0.000,0.048,0.000,1.637,0.000,0.000,0.000,0.380,0.000,0.000,0.124,1.548,8.714
1.547,0.300,0.353,0.000,0.048,0.000,1.637,0.000,0.000,0.000,0.380,0.000,0.000,0.124,1.548,8.714
1.557,0.300,0.349,0.000,0.094,0.000,1.893,0.000,0.000,0.000,0.351,0.000,0.000,0.314,0.410,7.581
1.567,0.300,0.349,0.000,0.094,0.000,1.893,0.000,0.000,0.000,0.351,0.000,0.000,0.314,0.410,7.581
1.577,0.300,0.337,0.000,0.093,0.000,1.947,0.000,0.000,0.000,0.240,0.000,0.000,-0.375,-0.020,7.803
1.588,0.300,0.337,0.000,0.093,0.000,1.947,0.000,0.000,0.000,0.240,0.000,0.000,-0.375,-0.020,7.803
1.598,0.300,0.338,0.000,0.018,0.000,1.863,0.000,0.000,0.000,0.026,0.000,0.000,1.601,0.922,13.634
1.608,0.300,0.338,0.000,0.018,0.000,1.863,0.000,0.000,0.000,0.026,0.000,0.000,1.601,0.922,13.634
1.618,0.300,0.362,0.000,-0.087,0.000,1.420,0.000,0.000,0.000,-0.258,0.000,0.000,0.862,4.514,2.671
1.628,0.300,0.362,0.000,-0.087,0.000,1.420,0.000,0.000,0.000,-0.258,0.000,0.000,0.862,4.514,2.671
1.638,0.300,0.368,0.000,-0.025,0.000,1.585,0.000,0.000,0.000,-0.087,0.000,0.000,1.332,-4.060,12.963
1.649,0.300,0.368,0.000,-0.025,0.000,1.585,0.000,0.000,0.000,-0.087,0.000,0.000,1.332,-4.060,12.963
1.659,0.300,0.366,0.000,-0.051,0.000,1.509,0.000,0.000,0.000,0.066,0.000,0.000,-3.372,-0.731,11.126
1.669,0.300,0.366,0.000,-0.051,0.000,1.509,0.000,0.000,0.000,0.066,0.000,0.000,-3.372,-0.731,11.126
1.679,0.300,0.375,0.000,-0.008,0.000,1.249,0.000,0.000,0.000,0.420,0.000,0.000,0.089,1.297,13.349
1.689,0.300,0.375,0.000,-0.008,0.000,1.249,0.000,0.000,0.000,0.420,0.000,0.000,0.089,1.297,13.349
1.699,0.300,0.366,0.000,-0.003,0.000,0.966,0.000,0.000,0.000,0.605,0.000,0.000,1.573,0.441,4.922
1.710,0.300,0.366,0.000,-0.003,0.000,0.966,0.000,0.000,0.000,0.605,0.000,0.000,1.573,0.441,4.922
1.720,0.300,0.363,0.000,-0.077,0.000,0.846,0.000,0.000,0.000,0.580,0.000,0.000,-1.625,0.920,4.828
1.731,0.300,0.363,0.000,-0.077,0.000,0.846,0.000,0.000,0.000,0.580,0.000,0.000,-1.625,0.920,4.828
1.741,0.300,0.343,0.000,-0.102,0.000,0.849,0.000,0.000,0.000,0.501,0.000,0.000,-0.337,0.251,7.431
1.751,0.300,0.343,0.000,-0.102,0.000,0.849,0.000,0.000,0.000,0.501,0.000,0.000,-0.337,0.251,7.431
1.761,0.300,0.355,0.000,-0.037,0.000,0.965,0.000,0.000,0.000,0.379,0.000,0.000,0.737,-0.623,8.467
1.772,0.300,0.355,0.000,-0.037,0.000,0.965,0.000,0.000,0.000,0.379,0.000,0.000,0.737,-0.623,8.467
1.782,0.300,0.382,0.000,0.056,0.000,1.205,0.000,0.000,0.000,0.200,0.000,0.000,3.285,-0.274,6.786
1.792,0.300,0.382,0.000,0.056,0.000,1.205,0.000,0.000,0.000,0.200,0.000,0.000,3.285,-0.274,6.786
1.802,0.300,0.371,0.000,-0.023,0.000,1.665,0.000,0.000,0.000,0.090,0.000,0.000,4.149,-3.173,10.841
1.812,0.300,0.383,0.000,-0.007,0.000,1.103,0.000,0.000,0.000,-0.184,0.000,0.000,-3.458,0.518,13.547
1.822,0.300,0.383,0.000,-0.007,0.000,1.103,0.000,0.000,0.000,-0.184,0.000,0.000,-3.458,0.518,13.547
1.832,0.300,0.365,0.000,-0.029,0.000,0.873,0.000,0.000,0.000,0.001,0.000,0.000,0.046,0.764,5.733
1.843,0.300,0.365,0.000,-0.029,0.000,0.873,0.000,0.000,0.000,0.001,0.000,0.000,0.046,0.764,5.733
1.853,0.300,0.367,0.000,0.052,0.000,0.930,0.000,0.000,0.000,0.084,0.000,0.000,0.382,0.413,9.441
1.863,0.300,0.367,0.000,0.052,0.000,0.930,0.000,0.000,0.000,0.084,0.000,0.000,0.382,0.413,9.441
1.873,0.300,0.353,0.000,0.195,0.000,1.179,0.000,0.000,0.000,0.089,0.000,0.000,0.062,-0.110,6.011
1.883,0.300,0.353,0.000,0.195,0.000,1.179,0.000,0.000,0.000,0.089,0.000,0.000,0.062,-0.110,6.011
1.893,0.300,0.342,0.000,0.158,0.000,1.319,0.000,0.000,0.000,0.010,0.000,0.000,-1.297,-0.026,8.825
1.904,0.300,0.342,0.000,0.158,0.000,1.319,0.000,0.000,0.000,0.010,0.000,0.000,-1.297,-0.026,8.825
1.914,0.300,0.339,0.000,0.113,0.000,1.327,0.000,0.000,0.000,-0.165,0.000,0.000,0.788,2.064,6.692
1.925,0.300,0.339,0.000,0.113,0.000,1.327,0.000,0.000,0.000,-0.165,0.000,0.000,0.788,2.064,6.692
1.935,0.300,0.355,0.000,-0.131,0.000,0.845,0.000,0.000,0.000,-0.420,0.000,0.000,1.910,1.966,8.368
1.945,0.300,0.355,0.000,-0.131,0.000,0.845,0.000,0.000,0.000,-0.420,0.000,0.000,1.910,1.966,8.368
1.956,0.300,0.350,0.000,-0.086,0.000,1.285,0.000,0.000,0.000,-0.099,0.000,0.000,2.504,-4.184,-3.832
1.966,0.300,0.350,0.000,-0.086,0.000,1.285,0.000,0.000,0.000,-0.099,0.000,0.000,2.504,-4.184,-3.832
1.977,0.300,0.407,0.000,-0.151,0.000,1.311,0.000,0.000,0.000,0.328,0.000,0.000,-3.060,0.227,14.997
1.987,0.300,0.407,0.000,-0.151,0.000,1.311,0.000,0.000,0.000,0.328,0.000,0.000,-3.060,0.227,14.997
1.997,0.300,0.389,0.000,-0.084,0.000,0.998,0.000,0.000,0.000,0.677,0.000,0.000,0.495,1.085,14.142
2.008,0.300,0.389,0.000,-0.084,0.000,0.998,0.000,0.000,0.000,0.677,0.000,0.000,0.495,1.085,14.142
2.018,0.300,0.379,0.000,-0.019,0.000,0.676,0.000,0.000,0.000,0.770,0.000,0.000,0.441,-1.404,8.028
2.028,0.300,0.379,0.000,-0.019,0.000,0.676,0.000,0.000,0.000,0.770,0.000,0.000,0.441,-1.404,8.028
2.039,0.300,0.377,0.000,0.001,0.000,0.685,0.000,0.000,0.000,0.688,0.000,0.000,-1.064,0.137,6.076
2.049,0.300,0.377,0.000,0.001,0.000,0.685,0.000,0.000,0.000,0.688,0.000,0.000,-1.064,0.137,6.076
2.060,0.300,0.351,0.000,0.008,0.000,0.741,0.000,0.000,0.000,0.532,0.000,0.000,-0.316,0.566,6.010
2.070,0.300,0.351,0.000,0.008,0.000,0.741,0.000,0.000,0.000,0.532,0.000,0.000,-0.316,0.566,6.010
2.080,0.300,0.355,0.000,0.002,0.000,0.901,0.000,0.000,0.000,0.289,0.000,0.000,0.757,-1.559,11.798
2.091,0.300,0.355,0.000,0.002,0.000,0.901,0.000,0.000,0.000,0.289,0.000,0.000,0.757,-1.559,11.798
2.101,0.300,0.381,0.000,0.085,0.000,1.158,0.000,0.000,0.000,0.118,0.000,0.000,0.967,-3.676,10.333
2.111,0.300,0.381,0.000,0.085,0.000,1.158,0.000,0.000,0.000,0.118,0.000,0.000,0.967,-3.676,10.333
2.121,0.300,0.382,0.000,-0.058,0.000,1.591,0.000,0.000,0.000,-0.010,0.000,0.000,1.615,-1.509,14.827
2.131,0.300,0.382,0.000,-0.058,0.000,1.591,0.000,0.000,0.000,-0.010,0.000,0.000,1.615,-1.509,14.827
2.142,0.300,0.376,0.000,-0.098,0.000,1.076,0.000,0.000,0.000,-0.142,0.000,0.000,-4.958,0.119,6.915
2.152,0.300,0.376,0.000,-0.098,0.000,1.076,0.000,0.000,0.000,-0.142,0.000,0.000,-4.958,0.119,6.915
2.162,0.300,0.370,0.000,-0.106,0.000,0.968,0.000,0.000,0.000,0.116,0.000,0.000,-1.744,0.858,11.813
2.172,0.300,0.370,0.000,-0.106,0.000,0.968,0.000,0.000,0.000,0.116,0.000,0.000,-1.744,0.858,11.813
2.183,0.300,0.356,0.000,-0.000,0.000,1.136,0.000,0.000,0.000,0.244,0.000,0.000,0.819,-0.315,10.681
2.193,0.300,0.356,0.000,-0.000,0.000,1.136,0.000,0.000,0.000,0.244,0.000,0.000,0.819,-0.315,10.681
2.203,0.300,0.356,0.000,0.090,0.000,1.386,0.000,0.000,0.000,0.223,0.000,0.000,-0.479,0.094,6.523
2.213,0.300,0.356,0.000,0.090,0.000,1.386,0.000,0.000,0.000,0.223,0.000,0.000,-0.479,0.094,6.523
2.224,0.300,0.340,0.000,0.083,0.000,1.471,0.000,0.000,0.000,0.168,0.000,0.000,-0.199,0.494,6.289
2.234,0.300,0.340,0.000,0.083,0.000,1.471,0.000,0.000,0.000,0.168,0.000,0.000,-0.199,0.494,6.289
2.244,0.300,0.344,0.000,0.064,0.000,1.449,0.000,0.000,0.000,0.030,0.000,0.000,1.492,1.047,11.589
2.255,0.300,0.344,0.000,0.064,0.000,1.449,0.000,0.000,0.000,0.030,0.000,0.000,1.492,1.047,11.589
2.265,0.300,0.366,0.000,-0.060,0.000,1.051,0.000,0.000,0.000,-0.209,0.000,0.000,1.706,0.084,15.957
2.275,0.300,0.366,0.000,-0.060,0.000,1.051,0.000,0.000,0.000,-0.209,0.000,0.000,1.706,0.084,15.957
2.285,0.300,0.369,0.000,-0.026,0.000,1.307,0.000,0.000,0.000,0.040,0.000,0.000,0.619,-0.683,5.963
2.296,0.300,0.369,0.000,-0.026,0.000,1.307,0.000,0.000,0.000,0.040,0.000,0.000,0.619,-0.683,5.963
2.306,0.300,0.364,0.000,-0.089,0.000,1.296,0.000,0.000,0.000,0.110,0.000,0.000,-3.173,0.353,10.145
2.317,0.300,0.364,0.000,-0.089,0.000,1.296,0.000,0.000,0.000,0.110,0.000,0.000,-3.173,0.353,10.145
2.327,0.300,0.351,0.000,-0.106,0.000,1.155,0.000,0.000,0.000,0.431,0.000,0.000,-0.205,1.069,10.240
2.337,0.300,0.351,0.000,-0.106,0.000,1.155,0.000,0.000,0.000,0.431,0.000,0.000,-0.205,1.069,10.240
2.348,0.300,0.342,0.000,-0.066,0.000,1.006,0.000,0.000,0.000,0.562,0.000,0.000,1.041,-1.402,7.627
2.358,0.300,0.342,0.000,-0.066,0.000,1.006,0.000,0.000,0.000,0.562,0.000,0.000,1.041,-1.402,7.627
2.369,0.300,0.343,0.000,-0.102,0.000,0.960,0.000,0.000,0.000,0.470,0.000,0.000,-1.255,0.341,5.389
2.379,0.300,0.324,0.000,-0.105,0.000,1.033,0.000,0.000,0.000,0.315,0.000,0.000,-0.283,0.863,6.119
2.389,0.300,0.333,0.000,-0.039,0.000,1.184,0.000,0.000,0.000,0.115,0.000,0.000,0.809,-1.360,11.311
2.400,0.300,0.333,0.000,-0.039,0.000,1.184,0.000,0.000,0.000,0.115,0.000,0.000,0.809,-1.360,11.311
2.410,0.300,0.361,0.000,0.195,0.000,1.457,0.000,0.000,0.000,-0.076,0.000,0.000,2.703,-2.882,12.776
2.421,0.300,0.361,0.000,0.195,0.000,1.457,0.000,0.000,0.000,-0.076,0.000,0.000,2.703,-2.882,12.776
2.431,0.300,0.340,0.000,0.081,0.000,1.565,0.000,0.000,0.000,-0.059,0.000,0.000,2.852,-2.870,14.475
2.441,0.300,0.340,0.000,0.081,0.000,1.565,0.000,0.000,0.000,-0.059,0.000,0.000,2.852,-2.870,14.475
2.452,0.300,0.337,0.000,-0.000,0.000,1.342,0.000,0.000,0.000,-0.033,0.000,0.000,-4.112,-0.528,7.692
2.462,0.300,0.337,0.000,-0.000,0.000,1.342,0.000,0.000,0.000,-0.033,0.000,0.000,-4.112,-0.528,7.692
2.473,0.300,0.356,0.000,-0.063,0.000,1.325,0.000,0.000,0.000,0.186,0.000,0.000,-1.912,1.151,8.487
2.483,0.300,0.356,0.000,-0.063,0.000,1.325,0.000,0.000,0.000,0.186,0.000,0.000,-1.912,1.151,8.487
2.493,0.300,0.331,0.000,-0.028,0.000,1.571,0.000,0.000,0.000,0.321,0.000,0.000,0.545,1.486,8.763
2.504,0.300,0.331,0.000,-0.028,0.000,1.571,0.000,0.000,0.000,0.321,0.000,0.000,0.545,1.486,8.763
2.514,0.300,0.332,0.000,-0.030,0.000,1.894,0.000,0.000,0.000,0.347,0.000,0.000,0.297,0.421,8.154
2.525,0.300,0.332,0.000,-0.030,0.000,1.894,0.000,0.000,0.000,0.347,0.000,0.000,0.297,0.421,8.154
2.535,0.300,0.322,0.000,0.012,0.000,2.012,0.000,0.000,0.000,0.314,0.000,0.000,-0.011,-0.314,6.215
2.546,0.300,0.322,0.000,0.012,0.000,2.012,0.000,0.000,0.000,0.314,0.000,0.000,-0.011,-0.314,6.215
2.556,0.300,0.328,0.000,-0.012,0.000,1.976,0.000,0.000,0.000,0.150,0.000,0.000,1.571,1.333,7.821
2.567,0.300,0.328,0.000,-0.012,0.000,1.976,0.000,0.000,0.000,0.150,0.000,0.000,1.571,1.333,7.821
2.577,0.300,0.356,0.000,-0.065,0.000,1.574,0.000,0.000,0.000,-0.129,0.000,0.000,1.491,4.438,4.205
2.588,0.300,0.356,0.000,-0.065,0.000,1.574,0.000,0.000,0.000,-0.129,0.000,0.000,1.491,4.438,4.205
2.598,0.300,0.364,0.000,0.086,0.000,1.678,0.000,0.000,0.000,-0.027,0.000,0.000,2.483,-2.461,11.160
2.609,0.300,0.364,0.000,0.086,0.000,1.678,0.000,0.000,0.000,-0.027,0.000,0.000,2.483,-2.461,11.160
2.619,0.300,0.385,0.000,0.032,0.000,1.768,0.000,0.000,0.000,0.047,0.000,0.000,-3.647,-0.712,10.702
2.630,0.300,0.385,0.000,0.032,0.000,1.768,0.000,0.000,0.000,0.047,0.000,0.000,-3.647,-0.712,10.702
2.640,0.300,0.372,0.000,-0.099,0.000,1.563,0.000,0.000,0.000,0.376,0.000,0.000,-0.852,0.551,10.475
2.651,0.300,0.372,0.000,-0.099,0.000,1.563,0.000,0.000,0.000,0.376,0.000,0.000,-0.852,0.551,10.475
2.661,0.300,0.361,0.000,-0.076,0.000,1.375,0.000,0.000,0.000,0.489,0.000,0.000,-0.921,-2.235,10.453
2.672,0.300,0.361,0.000,-0.076,0.000,1.375,0.000,0.000,0.000,0.489,0.000,0.000,-0.921,-2.235,10.453
2.682,0.300,0.344,0.000,-0.185,0.000,1.320,0.000,0.000,0.000,0.422,0.000,0.000,-0.434,-0.133,6.260
2.693,0.300,0.344,0.000,-0.185,0.000,1.320,0.000,0.000,0.000,0.422,0.000,0.000,-0.434,-0.133,6.260
2.703,0.300,0.328,0.000,-0.199,0.000,1.341,0.000,0.000,0.000,0.283,0.000,0.000,-0.444,0.205,7.065
2.713,0.300,0.328,0.000,-0.199,0.000,1.341,0.000,0.000,0.000,0.283,0.000,0.000,-0.444,0.205,7.065
2.724,0.300,0.333,0.000,-0.076,0.000,1.466,0.000,0.000,0.000,0.076,0.000,0.000,0.582,-0.905,8.550
2.734,0.300,0.333,0.000,-0.076,0.000,1.466,0.000,0.000,0.000,0.076,0.000,0.000,0.582,-0.905,8.550
2.745,0.300,0.370,0.000,0.117,0.000,1.691,0.000,0.000,0.000,-0.096,0.000,0.000,3.638,0.157,5.576
2.755,0.300,0.370,0.000,0.117,0.000,1.691,0.000,0.000,0.000,-0.096,0.000,0.000,3.638,0.157,5.576
2.766,0.300,0.381,0.000,-0.088,0.000,1.782,0.000,0.000,0.000,-0.043,0.000,0.000,3.011,-2.557,16.609
2.776,0.300,0.381,0.000,-0.088,0.000,1.782,0.000,0.000,0.000,-0.043,0.000,0.000,3.011,-2.557,16.609
2.786,0.300,0.390,0.000,-0.046,0.000,1.482,0.000,0.000,0.000,-0.077,0.000,0.000,-4.127,0.027,13.652
2.797,0.300,0.391,0.000,-0.052,0.000,1.383,0.000,0.000,0.000,0.127,0.000,0.000,-0.786,1.158,8.738
2.807,0.300,0.391,0.000,-0.052,0.000,1.383,0.000,0.000,0.000,0.127,0.000,0.000,-0.786,1.158,8.738
2.817,0.300,0.367,0.000,0.024,0.000,1.531,0.000,0.000,0.000,0.225,0.000,0.000,0.408,0.864,7.613
2.828,0.300,0.367,0.000,0.024,0.000,1.531,0.000,0.000,0.000,0.225,0.000,0.000,0.408,0.864,7.613
2.838,0.300,0.358,0.000,0.052,0.000,1.760,0.000,0.000,0.000,0.191,0.000,0.000,0.278,-0.067,7.127
2.849,0.300,0.358,0.000,0.052,0.000,1.760,0.000,0.000,0.000,0.191,0.000,0.000,0.278,-0.067,7.127
2.859,0.300,0.358,0.000,0.052,0.000,1.760,0.000,0.000,0.000,0.191,0.000,0.000,0.278,-0.067,7.127
2.869,0.300,0.358,0.000,0.052,0.000,1.760,0.000,0.000,0.000,0.191,0.000,0.000,0.278,-0.067,7.127
2.880,0.300,0.358,0.000,0.052,0.000,1.760,0.000,0.000,0.000,0.191,0.000,0.000,0.278,-0.067,7.127
2.890,0.300,0.358,0.000,0.052,0.000,1.760,0.000,0.000,0.000,0.191,0.000,0.000,0.278,-0.067,7.127
2.900,0.300,0.358,0.000,0.052,0.000,1.760,0.000,0.000,0.000,0.191,0.000,0.000,0.278,-0.067,7.127
2.911,0.300,0.358,0.000,0.052,0.000,1.760,0.000,0.000,0.000,0.191,0.000,0.000,0.278,-0.067,7.127
2.921,0.300,0.358,0.000,0.052,0.000,1.760,0.000,0.000,0.000,0.191,0.000,0.000,0.278,-0.067,7.127
2.932,0.300,0.358,0.000,0.052,0.000,1.760,0.000,0.000,0.000,0.191,0.000,0.000,0.278,-0.067,7.127
2.942,0.300,0.358,0.000,0.052,0.000,1.760,0.000,0.000,0.000,0.191,0.000,0.000,0.278,-0.067,7.127
2.952,0.300,0.358,0.000,0.052,0.000,1.760,0.000,0.000,0.000,0.191,0.000,0.000,0.278,-0.067,7.127
2.963,0.300,0.358,0.000,0.052,0.000,1.760,0.000,0.000,0.000,0.191,0.000,0.000,0.278,-0.067,7.127
2.973,0.300,0.358,0.000,0.052,0.000,1.760,0.000,0.000,0.000,0.191,0.000,0.000,0.278,-0.067,7.127
2.984,0.300,0.358,0.000,0.052,0.000,1.760,0.000,0.000,0.000,0.191,0.000,0.000,0.278,-0.067,7.127
2.994,0.300,0.358,0.000,0.052,0.000,1.760,0.000,0.000,0.000,0.191,0.000,0.000,0.278,-0.067,7.127
3.004,0.300,0.358,0.000,0.052,0.000,1.760,0.000,0.000,0.000,0.191,0.000,0.000,0.278,-0.067,7.127
3.015,0.300,0.358,0.000,0.052,0.000,1.760,0.000,0.000,0.000,0.191,0.000,0.000,0.278,-0.067,7.127
3.025,0.300,0.358,0.000,0.052,0.000,1.760,0.000,0.000,0.000,0.191,0.000,0.000,0.278,-0.067,7.127
3.036,0.300,0.358,0.000,0.052,0.000,1.760,0.000,0.000,0.000,0.191,0.000,0.000,0.278,-0.067,7.127
3.046,0.300,0.358,0.000,0.052,0.000,1.760,0.000,0.000,0.000,0.191,0.000,0.000,0.278,-0.067,7.127
3.056,0.300,0.358,0.000,0.052,0.000,1.760,0.000,0.000,0.000,0.191,0.000,0.000,0.278,-0.067,7.127
3.067,0.300,0.358,0.000,0.052,0.000,1.760,0.000,0.000,0.000,0.191,0.000,0.000,0.278,-0.067,7.127
3.077,0.300,0.410,0.000,0.118,0.000,1.850,0.000,0.000,0.000,0.000,0.000,0.000,2.406,-1.209,9.287
3.087,0.300,0.410,0.000,0.118,0.000,1.850,0.000,0.000,0.000,0.000,0.000,0.000,2.406,-1.209,9.287
3.098,0.300,0.426,0.000,0.035,0.000,1.399,0.000,0.000,0.000,-0.202,0.000,0.000,-5.136,-1.238,10.228
3.108,0.300,0.426,0.000,0.035,0.000,1.399,0.000,0.000,0.000,-0.202,0.000,0.000,-5.136,-1.238,10.228
3.118,0.300,0.394,0.000,-0.112,0.000,1.195,0.000,0.000,0.000,0.035,0.000,0.000,-1.260,1.251,11.060
3.129,0.300,0.394,0.000,-0.112,0.000,1.195,0.000,0.000,0.000,0.035,0.000,0.000,-1.260,1.251,11.060
3.139,0.300,0.383,0.000,-0.012,0.000,1.294,0.000,0.000,0.000,0.100,0.000,0.000,0.807,0.818,10.645
3.150,0.300,0.383,0.000,-0.012,0.000,1.294,0.000,0.000,0.000,0.100,0.000,0.000,0.807,0.818,10.645
3.160,0.300,0.379,0.000,0.090,0.000,1.421,0.000,0.000,0.000,0.020,0.000,0.000,0.630,0.079,6.912
3.170,0.300,0.379,0.000,0.090,0.000,1.421,0.000,0.000,0.000,0.020,0.000,0.000,0.630,0.079,6.912
3.181,0.300,0.362,0.000,0.093,0.000,1.455,0.000,0.000,0.000,-0.061,0.000,0.000,0.113,0.385,6.302
3.191,0.300,0.362,0.000,0.093,0.000,1.455,0.000,0.000,0.000,-0.061,0.000,0.000,0.113,0.385,6.302
3.201,0.300,0.366,0.000,0.053,0.000,1.386,0.000,0.000,0.000,-0.246,0.000,0.000,0.928,0.641,7.857
3.212,0.300,0.366,0.000,0.053,0.000,1.386,0.000,0.000,0.000,-0.246,0.000,0.000,0.928,0.641,7.857
3.222,0.300,0.387,0.000,-0.067,0.000,1.024,0.000,0.000,0.000,-0.458,0.000,0.000,1.653,0.242,14.154
3.233,0.300,0.387,0.000,-0.067,0.000,1.024,0.000,0.000,0.000,-0.458,0.000,0.000,1.653,0.242,14.154
3.243,0.300,0.388,0.000,0.024,0.000,1.238,0.000,0.000,0.000,-0.146,0.000,0.000,1.196,1.058,8.256
3.253,0.300,0.388,0.000,0.024,0.000,1.238,0.000,0.000,0.000,-0.146,0.000,0.000,1.196,1.058,8.256
3.264,0.300,0.401,0.000,-0.090,0.000,1.040,0.000,0.000,0.000,-0.107,0.000,0.000,-2.592,1.287,8.472
3.274,0.300,0.401,0.000,-0.090,0.000,1.040,0.000,0.000,0.000,-0.107,0.000,0.000,-2.592,1.287,8.472
3.285,0.300,0.391,0.000,-0.036,0.000,0.918,0.000,0.000,0.000,0.222,0.000,0.000,0.142,1.217,11.185
3.295,0.300,0.391,0.000,-0.036,0.000,0.918,0.000,0.000,0.000,0.222,0.000,0.000,0.142,1.217,11.185
3.305,0.300,0.378,0.000,-0.051,0.000,0.728,0.000,0.000,0.000,0.364,0.000,0.000,1.295,-0.315,6.421
3.316,0.300,0.374,0.000,-0.080,0.000,0.680,0.000,0.000,0.000,0.303,0.000,0.000,-1.416,0.478,4.671
3.326,0.300,0.374,0.000,-0.080,0.000,0.680,0.000,0.000,0.000,0.303,0.000,0.000,-1.416,0.478,4.671
