Time(s),Target_Vx,Go1_Vx,Target_YawRate,Go1_YawRate,Target_Roll,Go1_Roll,Stab_Roll,Obj_Roll,Target_Pitch,Go1_Pitch,Stab_Pitch,Obj_Pitch,Go1_Accel_X,Go1_Accel_Y,Go1_Accel_Z
0.003,0.300,-0.000,0.600,0.005,0.000,2.545,-2.418,0.000,0.000,1.705,2.323,0.000,-0.264,0.430,9.721
0.016,0.300,-0.000,0.600,-0.003,0.000,2.550,-2.418,0.000,0.000,1.707,2.323,0.000,-0.298,0.444,9.701
0.026,0.300,-0.000,0.600,-0.003,0.000,2.550,-2.418,0.000,0.000,1.707,2.323,0.000,-0.298,0.444,9.701
0.037,0.300,-0.000,0.600,-0.006,0.000,2.553,-2.418,0.000,0.000,1.706,2.323,0.000,-0.280,0.450,9.638
0.051,0.300,-0.000,0.600,-0.006,0.000,2.553,-2.418,0.000,0.000,1.706,2.323,0.000,-0.280,0.450,9.638
0.061,0.300,-0.000,0.600,-0.087,0.000,2.547,-2.418,0.000,0.000,1.665,2.323,0.000,3.419,3.431,-2.340
0.071,0.300,-0.000,0.600,-0.087,0.000,2.547,-2.418,0.000,0.000,1.665,2.323,0.000,3.419,3.431,-2.340
0.082,0.300,0.050,0.600,0.190,0.000,2.694,-2.418,0.000,0.000,1.305,2.323,0.000,-2.719,1.012,13.254
0.092,0.300,0.050,0.600,0.190,0.000,2.694,-2.418,0.000,0.000,1.305,2.323,0.000,-2.719,1.012,13.254
0.103,0.300,0.047,0.600,0.363,0.000,2.946,-2.418,0.000,0.000,1.442,2.323,0.000,0.348,0.751,13.594
0.113,0.300,0.047,0.600,0.363,0.000,2.946,-2.418,0.000,0.000,1.442,2.323,0.000,0.348,0.751,13.594
0.124,0.300,0.054,0.600,0.441,0.000,2.962,-2.418,0.000,0.000,1.583,2.323,0.000,1.654,0.984,9.376
0.134,0.300,0.054,0.600,0.441,0.000,2.962,-2.418,0.000,0.000,1.583,2.323,0.000,1.654,0.984,9.376
0.145,0.300,0.080,0.600,0.479,0.000,2.827,-2.391,0.000,0.000,1.461,2.351,0.000,1.181,0.846,9.035
0.156,0.300,0.080,0.600,0.479,0.000,2.827,-2.289,0.000,0.000,1.461,2.256,0.000,1.181,0.846,9.035
0.166,0.300,0.109,0.600,0.538,0.000,2.761,-2.449,0.000,0.000,1.057,2.158,0.000,0.855,0.394,7.619
0.177,0.300,0.109,0.600,0.538,0.000,2.761,-2.449,0.000,0.000,1.057,2.158,0.000,0.855,0.394,7.619
0.187,0.300,0.153,0.600,0.701,0.000,2.901,-2.835,0.000,0.000,0.386,2.161,0.000,2.194,-2.382,3.353
0.197,0.300,0.153,0.600,0.701,0.000,2.901,-2.835,0.000,0.000,0.386,2.161,0.000,2.194,-2.382,3.353
0.208,0.300,0.148,0.600,0.497,0.000,3.063,-2.835,0.000,0.000,0.004,2.161,0.000,2.506,-0.346,1.503
0.219,0.300,0.148,0.600,0.497,0.000,3.063,-2.835,0.000,0.000,0.004,2.161,0.000,2.506,-0.346,1.503
0.229,0.300,0.238,0.600,0.403,0.000,2.488,-2.835,0.000,0.000,-0.183,2.161,0.000,-2.574,1.736,11.618
0.240,0.300,0.238,0.600,0.403,0.000,2.488,-2.427,0.000,0.000,-0.183,2.289,0.000,-2.574,1.736,11.618
0.250,0.300,0.196,0.600,0.293,0.000,2.304,-2.427,0.000,0.000,0.045,2.289,0.000,2.338,0.561,8.185
0.260,0.300,0.213,0.600,0.399,0.000,2.543,-16.245,0.000,0.000,0.207,3.875,0.000,2.035,0.250,9.278
0.271,0.300,0.213,0.600,0.399,0.000,2.543,-16.245,0.000,0.000,0.207,3.875,0.000,2.035,0.250,9.278
0.281,0.300,0.230,0.600,0.549,0.000,2.762,-14.722,0.000,0.000,0.289,-11.492,0.000,0.953,0.353,6.847
0.291,0.300,0.230,0.600,0.549,0.000,2.762,-14.722,0.000,0.000,0.289,-11.492,0.000,0.953,0.353,6.847
0.301,0.300,0.246,0.600,0.590,0.000,2.974,-14.722,0.000,0.000,0.251,-11.492,0.000,0.259,2.798,7.823
0.312,0.300,0.246,0.600,0.590,0.000,2.974,-14.722,0.000,0.000,0.251,-11.492,0.000,0.259,2.798,7.823
0.322,0.300,0.261,0.600,0.567,0.000,3.161,-14.722,0.000,0.000,0.155,-11.492,0.000,1.701,0.125,8.564
0.332,0.300,0.261,0.600,0.567,0.000,3.161,-4.070,0.000,0.000,0.155,-3.464,0.000,1.701,0.125,8.564
0.342,0.300,0.300,0.600,0.659,0.000,2.933,-24.084,0.000,0.000,-0.012,-1.078,0.000,0.039,0.112,13.667
0.353,0.300,0.300,0.600,0.659,0.000,2.933,-24.084,0.000,0.000,-0.012,-1.078,0.000,0.039,0.112,13.667
0.363,0.300,0.308,0.600,0.624,0.000,3.108,4.607,0.000,0.000,0.216,-25.655,0.000,2.289,-5.012,3.744
0.374,0.300,0.308,0.600,0.624,0.000,3.108,4.607,0.000,0.000,0.216,-25.655,0.000,2.289,-5.012,3.744
0.385,0.300,0.374,0.600,0.417,0.000,2.971,-3.969,0.000,0.000,0.288,-4.246,0.000,-1.686,1.401,11.726
0.395,0.300,0.374,0.600,0.417,0.000,2.971,-3.969,0.000,0.000,0.288,-4.246,0.000,-1.686,1.401,11.726
0.405,0.300,0.334,0.600,0.402,0.000,2.886,-3.969,0.000,0.000,0.720,-4.246,0.000,0.177,1.248,10.986
0.416,0.300,0.334,0.600,0.402,0.000,2.886,-3.969,0.000,0.000,0.720,-4.246,0.000,0.177,1.248,10.986
0.426,0.300,0.341,0.600,0.290,0.000,2.706,-3.969,0.000,0.000,1.004,-4.246,0.000,1.449,-0.594,8.241
0.437,0.300,0.348,0.600,0.329,0.000,2.455,-3.945,0.000,0.000,1.084,-0.994,0.000,1.002,1.354,6.537
0.447,0.300,0.348,0.600,0.329,0.000,2.455,-4.680,0.000,0.000,1.084,22.779,0.000,1.002,1.354,6.537
0.458,0.300,0.338,0.600,0.346,0.000,2.350,-4.680,0.000,0.000,0.941,22.779,0.000,0.186,0.530,7.572
0.468,0.300,0.338,0.600,0.346,0.000,2.350,-4.680,0.000,0.000,0.941,22.779,0.000,0.186,0.530,7.572
0.479,0.300,0.355,0.600,0.459,0.000,2.383,-4.680,0.000,0.000,0.679,22.779,0.000,0.726,0.891,7.860
0.490,0.300,0.355,0.600,0.459,0.000,2.383,-0.396,0.000,0.000,0.679,-6.763,0.000,0.726,0.891,7.860
0.501,0.300,0.392,0.600,0.529,0.000,2.646,-0.396,0.000,0.000,0.428,-6.763,0.000,-2.217,-2.612,18.326
0.511,0.300,0.392,0.600,0.529,0.000,2.646,-0.396,0.000,0.000,0.428,-6.763,0.000,-2.217,-2.612,18.326
0.521,0.300,0.379,0.600,0.456,0.000,2.498,-0.396,0.000,0.000,0.492,-6.763,0.000,1.624,-4.878,18.526
0.532,0.300,0.379,0.600,0.456,0.000,2.498,-0.396,0.000,0.000,0.492,-6.763,0.000,1.624,-4.878,18.526
0.542,0.300,0.388,0.600,0.387,0.000,2.180,-0.396,0.000,0.000,0.517,-6.763,0.000,-2.615,0.749,16.848
0.552,0.300,0.388,0.600,0.387,0.000,2.180,-0.396,0.000,0.000,0.517,-6.763,0.000,-2.615,0.749,16.848
0.563,0.300,0.369,0.600,0.408,0.000,1.953,-0.396,0.000,0.000,0.722,-6.763,0.000,0.347,1.340,8.885
0.573,0.300,0.369,0.600,0.408,0.000,1.953,-0.396,0.000,0.000,0.722,-6.763,0.000,0.347,1.340,8.885
0.584,0.300,0.364,0.600,0.418,0.000,1.956,-0.396,0.000,0.000,0.827,-6.763,0.000,1.183,-0.862,7.644
0.595,0.300,0.364,0.600,0.418,0.000,1.956,0.270,0.000,0.000,0.827,-3.299,0.000,1.183,-0.862,7.644
0.605,0.300,0.354,0.600,0.476,0.000,2.073,0.270,0.000,0.000,0.832,-3.299,0.000,-0.342,-0.186,6.002
0.615,0.300,0.354,0.600,0.476,0.000,2.073,0.270,0.000,0.000,0.832,-3.299,0.000,-0.342,-0.186,6.002
0.626,0.300,0.345,0.600,0.533,0.000,2.139,0.270,0.000,0.000,0.752,-3.299,0.000,0.265,0.392,5.937
0.636,0.300,0.345,0.600,0.533,0.000,2.139,0.270,0.000,0.000,0.752,-3.299,0.000,0.265,0.392,5.937
0.647,0.300,0.363,0.600,0.576,0.000,1.933,0.270,0.000,0.000,0.569,-3.299,0.000,0.963,2.350,7.251
0.657,0.300,0.363,0.600,0.576,0.000,1.933,-9.492,0.000,0.000,0.569,1.997,0.000,0.963,2.350,7.251
0.668,0.300,0.384,0.600,0.548,0.000,1.681,3.400,0.000,0.000,0.431,-23.166,0.000,-0.183,1.742,12.207
0.678,0.300,0.384,0.600,0.548,0.000,1.681,3.400,0.000,0.000,0.431,-23.166,0.000,-0.183,1.742,12.207
0.689,0.300,0.373,0.600,0.455,0.000,1.866,3.400,0.000,0.000,0.773,-23.166,0.000,3.003,-0.878,3.332
0.699,0.300,0.408,0.600,0.401,0.000,1.607,3.400,0.000,0.000,0.916,-23.166,0.000,-3.105,1.734,12.286
0.710,0.300,0.408,0.600,0.401,0.000,1.607,3.400,0.000,0.000,0.916,-23.166,0.000,-3.105,1.734,12.286
0.721,0.300,0.386,0.600,0.420,0.000,1.393,3.400,0.000,0.000,1.297,-23.166,0.000,-0.438,1.806,11.177
0.731,0.300,0.386,0.600,0.420,0.000,1.393,3.400,0.000,0.000,1.297,-23.166,0.000,-0.438,1.806,11.177
0.742,0.300,0.375,0.600,0.416,0.000,1.063,-12.149,0.000,0.000,1.516,6.883,0.000,0.641,-1.422,8.465
0.752,0.300,0.375,0.600,0.416,0.000,1.063,0.446,0.000,0.000,1.516,3.819,0.000,0.641,-1.422,8.465
0.763,0.300,0.374,0.600,0.350,0.000,0.877,0.446,0.000,0.000,1.613,3.819,0.000,-0.126,-0.348,7.546
0.773,0.300,0.374,0.600,0.350,0.000,0.877,0.446,0.000,0.000,1.613,3.819,0.000,-0.126,-0.348,7.546
0.783,0.300,0.360,0.600,0.367,0.000,0.888,-1.583,0.000,0.000,1.573,2.551,0.000,0.316,-0.367,8.173
0.799,0.300,0.360,0.600,0.367,0.000,0.888,-1.583,0.000,0.000,1.573,2.551,0.000,0.316,-0.367,8.173
0.809,0.300,0.376,0.600,0.469,0.000,0.998,-1.583,0.000,0.000,1.510,2.551,0.000,0.975,-0.161,9.174
0.819,0.300,0.376,0.600,0.469,0.000,0.998,-1.583,0.000,0.000,1.510,2.551,0.000,0.975,-0.161,9.174
0.832,0.300,0.411,0.600,0.634,0.000,1.376,-1.583,0.000,0.000,1.330,2.551,0.000,0.262,-3.144,12.019
0.842,0.300,0.411,0.600,0.634,0.000,1.376,-1.583,0.000,0.000,1.330,2.551,0.000,0.262,-3.144,12.019
0.852,0.300,0.389,0.600,0.331,0.000,1.663,-10.402,0.000,0.000,1.247,-5.262,0.000,2.052,-4.661,20.137
0.865,0.300,0.392,0.600,0.422,0.000,1.011,-3.840,0.000,0.000,1.202,25.299,0.000,-2.211,-1.117,8.524
0.876,0.300,0.392,0.600,0.422,0.000,1.011,-3.840,0.000,0.000,1.202,25.299,0.000,-2.211,-1.117,8.524
0.886,0.300,0.376,0.600,0.417,0.000,0.903,-3.840,0.000,0.000,1.298,25.299,0.000,-1.118,2.324,8.879
0.898,0.300,0.373,0.600,0.503,0.000,0.974,-5.888,0.000,0.000,1.416,-3.178,0.000,0.736,1.471,4.222
0.909,0.300,0.373,0.600,0.503,0.000,0.974,-5.888,0.000,0.000,1.416,-3.178,0.000,0.736,1.471,4.222
0.919,0.300,0.368,0.600,0.565,0.000,1.278,-5.888,0.000,0.000,1.472,-3.178,0.000,0.359,-0.138,6.065
0.929,0.300,0.368,0.600,0.565,0.000,1.278,-5.888,0.000,0.000,1.472,-3.178,0.000,0.359,-0.138,6.065
0.939,0.300,0.362,0.600,0.603,0.000,1.553,-5.888,0.000,0.000,1.363,-3.178,0.000,0.611,-1.276,7.312
0.949,0.300,0.362,0.600,0.603,0.000,1.553,-5.888,0.000,0.000,1.363,-3.178,0.000,0.611,-1.276,7.312
0.960,0.300,0.376,0.600,0.572,0.000,1.590,6.501,0.000,0.000,1.197,-0.748,0.000,2.216,0.323,13.229
0.970,0.300,0.376,0.600,0.572,0.000,1.590,6.501,0.000,0.000,1.197,-0.748,0.000,2.216,0.323,13.229
0.981,0.300,0.408,0.600,0.427,0.000,1.133,-13.434,0.000,0.000,0.965,-4.471,0.000,1.810,-0.115,13.754
0.991,0.300,0.408,0.600,0.427,0.000,1.133,-13.434,0.000,0.000,0.965,-4.471,0.000,1.810,-0.115,13.754
1.001,0.300,0.417,0.600,0.660,0.000,1.446,34.056,0.000,0.000,1.291,-18.837,0.000,2.636,-4.842,14.920
1.012,0.300,0.417,0.600,0.660,0.000,1.446,34.056,0.000,0.000,1.291,-18.837,0.000,2.636,-4.842,14.920
1.022,0.300,0.425,0.600,0.366,0.000,1.304,34.056,0.000,0.000,1.429,-18.837,0.000,-2.107,0.864,11.498
1.033,0.300,0.425,0.600,0.366,0.000,1.304,34.056,0.000,0.000,1.429,-18.837,0.000,-2.107,0.864,11.498
1.043,0.300,0.410,0.600,0.411,0.000,1.183,-0.755,0.000,0.000,1.745,7.408,0.000,-0.117,1.694,12.827
1.054,0.300,0.410,0.600,0.411,0.000,1.183,-0.755,0.000,0.000,1.745,7.408,0.000,-0.117,1.694,12.827
1.064,0.300,0.395,0.600,0.392,0.000,0.971,-0.755,0.000,0.000,1.868,7.408,0.000,0.191,-0.780,6.261
1.075,0.300,0.395,0.600,0.392,0.000,0.971,-4.309,0.000,0.000,1.868,6.517,0.000,0.191,-0.780,6.261
1.085,0.300,0.387,0.600,0.370,0.000,0.942,-4.309,0.000,0.000,1.849,6.517,0.000,-0.540,-0.004,7.103
1.095,0.300,0.387,0.600,0.370,0.000,0.942,-4.309,0.000,0.000,1.849,6.517,0.000,-0.540,-0.004,7.103
1.106,0.300,0.363,0.600,0.403,0.000,1.067,6.114,0.000,0.000,1.747,10.287,0.000,0.050,-0.591,7.414
1.116,0.300,0.363,0.600,0.403,0.000,1.067,6.114,0.000,0.000,1.747,10.287,0.000,0.050,-0.591,7.414
1.126,0.300,0.379,0.600,0.514,0.000,1.190,6.114,0.000,0.000,1.602,10.287,0.000,0.970,-0.196,8.046
1.137,0.300,0.379,0.600,0.514,0.000,1.190,6.114,0.000,0.000,1.602,10.287,0.000,0.970,-0.196,8.046
1.147,0.300,0.412,0.600,0.630,0.000,1.526,6.114,0.000,0.000,1.425,10.287,0.000,1.879,-1.691,5.746
1.157,0.300,0.412,0.600,0.630,0.000,1.526,11.612,0.000,0.000,1.425,1.223,0.000,1.879,-1.691,5.746
1.167,0.300,0.389,0.600,0.374,0.000,1.663,11.612,0.000,0.000,1.435,1.223,0.000,2.785,-5.557,19.247
1.178,0.300,0.389,0.600,0.374,0.000,1.663,-25.422,0.000,0.000,1.435,-4.326,0.000,2.785,-5.557,19.247
1.188,0.300,0.395,0.600,0.423,0.000,1.238,-25.422,0.000,0.000,1.542,-4.326,0.000,-2.168,0.152,12.381
1.198,0.300,0.395,0.600,0.423,0.000,1.238,5.874,0.000,0.000,1.542,16.907,0.000,-2.168,0.152,12.381
1.209,0.300,0.400,0.600,0.417,0.000,1.202,5.874,0.000,0.000,1.725,16.907,0.000,-0.873,1.506,8.653
1.219,0.300,0.400,0.600,0.417,0.000,1.202,5.874,0.000,0.000,1.725,16.907,0.000,-0.873,1.506,8.653
1.229,0.300,0.383,0.600,0.482,0.000,1.379,5.874,0.000,0.000,1.881,16.907,0.000,0.902,-0.098,6.119
1.239,0.300,0.383,0.600,0.482,0.000,1.379,5.874,0.000,0.000,1.881,16.907,0.000,0.902,-0.098,6.119
1.250,0.300,0.374,0.600,0.523,0.000,1.680,5.874,0.000,0.000,1.970,16.907,0.000,0.054,-0.354,6.282
1.260,0.300,0.374,0.600,0.523,0.000,1.680,5.874,0.000,0.000,1.970,16.907,0.000,0.054,-0.354,6.282
1.271,0.300,0.367,0.600,0.606,0.000,1.912,5.874,0.000,0.000,1.870,16.907,0.000,0.396,-0.690,6.655
1.282,0.300,0.367,0.600,0.606,0.000,1.912,5.874,0.000,0.000,1.870,16.907,0.000,0.396,-0.690,6.655
1.293,0.300,0.375,0.600,0.535,0.000,1.811,5.874,0.000,0.000,1.720,16.907,0.000,1.501,1.169,7.399
1.304,0.300,0.402,0.600,0.443,0.000,1.387,7.485,0.000,0.000,1.504,-12.682,0.000,1.401,2.839,7.325
1.315,0.300,0.402,0.600,0.443,0.000,1.387,7.485,0.000,0.000,1.504,-12.682,0.000,1.401,2.839,7.325
1.325,0.300,0.400,0.600,0.665,0.000,1.702,7.485,0.000,0.000,1.741,-12.682,0.000,3.541,-1.966,0.571
1.336,0.300,0.414,0.600,0.375,0.000,1.705,7.485,0.000,0.000,1.836,-12.682,0.000,-3.259,0.649,11.341
1.346,0.300,0.414,0.600,0.375,0.000,1.705,7.485,0.000,0.000,1.836,-12.682,0.000,-3.259,0.649,11.341
1.356,0.300,0.393,0.600,0.406,0.000,1.624,7.485,0.000,0.000,2.107,-12.682,0.000,-0.431,0.953,12.303
1.366,0.300,0.393,0.600,0.406,0.000,1.624,11.817,0.000,0.000,2.107,-10.415,0.000,-0.431,0.953,12.303
1.376,0.300,0.384,0.600,0.389,0.000,1.500,-9.488,0.000,0.000,2.243,10.081,0.000,-0.486,-0.330,11.108
1.387,0.300,0.384,0.600,0.389,0.000,1.500,-9.488,0.000,0.000,2.243,10.081,0.000,-0.486,-0.330,11.108
1.397,0.300,0.377,0.600,0.403,0.000,1.450,1.101,0.000,0.000,2.222,0.321,0.000,-0.606,-0.110,6.713
1.407,0.300,0.377,0.600,0.403,0.000,1.450,1.101,0.000,0.000,2.222,0.321,0.000,-0.606,-0.110,6.713
1.417,0.300,0.358,0.600,0.389,0.000,1.536,1.101,0.000,0.000,2.087,0.321,0.000,0.213,0.350,7.887
1.427,0.300,0.358,0.600,0.389,0.000,1.536,1.101,0.000,0.000,2.087,0.321,0.000,0.213,0.350,7.887
1.438,0.300,0.370,0.600,0.559,0.000,1.665,1.101,0.000,0.000,1.841,0.321,0.000,0.538,-0.327,10.280
1.448,0.300,0.370,0.600,0.559,0.000,1.665,1.101,0.000,0.000,1.841,0.321,0.000,0.538,-0.327,10.280
1.458,0.300,0.402,0.600,0.677,0.000,2.055,1.101,0.000,0.000,1.638,0.321,0.000,-0.062,-2.846,15.668
1.468,0.300,0.402,0.600,0.677,0.000,2.055,1.101,0.000,0.000,1.638,0.321,0.000,-0.062,-2.846,15.668
1.479,0.300,0.396,0.600,0.446,0.000,2.087,1.101,0.000,0.000,1.807,0.321,0.000,3.321,-3.714,15.082
1.489,0.300,0.396,0.600,0.446,0.000,2.087,1.101,0.000,0.000,1.807,0.321,0.000,3.321,-3.714,15.082
1.499,0.300,0.409,0.600,0.354,0.000,1.873,1.101,0.000,0.000,1.970,0.321,0.000,-4.427,-0.241,11.195
1.509,0.300,0.409,0.600,0.354,0.000,1.873,-5.857,0.000,0.000,1.970,3.431,0.000,-4.427,-0.241,11.195
1.519,0.300,0.392,0.600,0.395,0.000,1.810,-5.857,0.000,0.000,2.235,3.431,0.000,-1.965,2.220,7.665
1.530,0.300,0.392,0.600,0.395,0.000,1.810,-5.857,0.000,0.000,2.235,3.431,0.000,-1.965,2.220,7.665
1.540,0.300,0.371,0.600,0.396,0.000,1.982,-5.857,0.000,0.000,2.331,3.431,0.000,0.926,-0.332,7.917
1.550,0.300,0.371,0.600,0.396,0.000,1.982,-5.857,0.000,0.000,2.331,3.431,0.000,0.926,-0.332,7.917
1.560,0.300,0.367,0.600,0.381,0.000,2.074,6.100,0.000,0.000,2.285,-9.988,0.000,-0.586,0.105,7.519
1.571,0.300,0.367,0.600,0.381,0.000,2.074,6.100,0.000,0.000,2.285,-9.988,0.000,-0.586,0.105,7.519
1.581,0.300,0.357,0.600,0.441,0.000,2.067,-5.497,0.000,0.000,2.221,-5.439,0.000,-0.221,-0.347,5.666
1.591,0.300,0.357,0.600,0.441,0.000,2.067,16.423,0.000,0.000,2.221,-2.649,0.000,-0.221,-0.347,5.666
1.601,0.300,0.374,0.600,0.449,0.000,1.813,-1.463,0.000,0.000,2.081,10.764,0.000,1.414,1.340,8.901
1.611,0.300,0.374,0.600,0.449,0.000,1.813,-10.628,0.000,0.000,2.081,7.618,0.000,1.414,1.340,8.901
1.621,0.300,0.406,0.600,0.396,0.000,1.490,-10.628,0.000,0.000,1.898,7.618,0.000,1.822,-0.129,14.555
1.632,0.300,0.406,0.600,0.396,0.000,1.490,-10.628,0.000,0.000,1.898,7.618,0.000,1.822,-0.129,14.555
1.642,0.300,0.399,0.600,0.536,0.000,1.828,-10.628,0.000,0.000,2.221,7.618,0.000,2.109,0.627,-3.606
1.652,0.300,0.399,0.600,0.536,0.000,1.828,-10.628,0.000,0.000,2.221,7.618,0.000,2.109,0.627,-3.606
1.662,0.300,0.424,0.600,0.382,0.000,1.659,-10.628,0.000,0.000,2.239,7.618,0.000,-2.859,1.280,9.463
1.672,0.300,0.424,0.600,0.382,0.000,1.659,-17.568,0.000,0.000,2.239,2.450,0.000,-2.859,1.280,9.463
1.682,0.300,0.394,0.600,0.434,0.000,1.469,-6.147,0.000,0.000,2.479,17.023,0.000,-0.048,1.449,11.629
1.693,0.300,0.394,0.600,0.434,0.000,1.469,-6.147,0.000,0.000,2.479,17.023,0.000,-0.048,1.449,11.629
1.703,0.300,0.389,0.600,0.427,0.000,1.260,-6.147,0.000,0.000,2.612,17.023,0.000,0.385,-0.459,8.281
1.715,0.300,0.389,0.600,0.427,0.000,1.260,-3.185,0.000,0.000,2.612,7.719,0.000,0.385,-0.459,8.281
1.725,0.300,0.389,0.600,0.386,0.000,1.182,-3.185,0.000,0.000,2.622,7.719,0.000,-0.729,-0.046,6.834
1.735,0.300,0.389,0.600,0.386,0.000,1.182,-3.185,0.000,0.000,2.622,7.719,0.000,-0.729,-0.046,6.834
1.748,0.300,0.378,0.600,0.376,0.000,1.266,-3.185,0.000,0.000,2.524,7.719,0.000,0.073,0.266,7.375
1.758,0.300,0.378,0.600,0.376,0.000,1.266,-3.185,0.000,0.000,2.524,7.719,0.000,0.073,0.266,7.375
1.769,0.300,0.399,0.600,0.542,0.000,1.454,-3.185,0.000,0.000,2.320,7.719,0.000,0.368,0.246,9.303
1.779,0.300,0.399,0.600,0.542,0.000,1.454,-3.185,0.000,0.000,2.320,7.719,0.000,0.368,0.246,9.303
1.790,0.300,0.438,0.600,0.677,0.000,1.864,-3.185,0.000,0.000,2.133,7.719,0.000,1.468,-2.939,11.407
1.800,0.300,0.438,0.600,0.677,0.000,1.864,5.806,0.000,0.000,2.133,-0.424,0.000,1.468,-2.939,11.407
1.810,0.300,0.419,0.600,0.561,0.000,2.051,5.806,0.000,0.000,2.120,-0.424,0.000,3.179,-4.293,14.056
1.821,0.300,0.419,0.600,0.561,0.000,2.051,5.806,0.000,0.000,2.120,-0.424,0.000,3.179,-4.293,14.056
1.831,0.300,0.386,0.600,0.393,0.000,1.656,5.806,0.000,0.000,2.178,-0.424,0.000,-3.022,-1.038,8.620
1.842,0.300,0.386,0.600,0.393,0.000,1.656,5.806,0.000,0.000,2.178,-0.424,0.000,-3.022,-1.038,8.620
1.852,0.300,0.390,0.600,0.429,0.000,1.601,5.806,0.000,0.000,2.279,-0.424,0.000,-1.940,2.365,8.097
1.862,0.300,0.390,0.600,0.429,0.000,1.601,5.806,0.000,0.000,2.279,-0.424,0.000,-1.940,2.365,8.097
1.873,0.300,0.360,0.600,0.415,0.000,1.763,5.806,0.000,0.000,2.340,-0.424,0.000,0.957,1.079,7.241
1.883,0.300,0.356,0.600,0.432,0.000,1.958,5.806,0.000,0.000,2.332,-0.424,0.000,-0.178,0.085,7.756
1.893,0.300,0.356,0.600,0.432,0.000,1.958,5.806,0.000,0.000,2.332,-0.424,0.000,-0.178,0.085,7.756
1.904,0.300,0.355,0.600,0.528,0.000,2.075,-12.196,0.000,0.000,2.295,-4.278,0.000,0.170,-1.014,5.817
1.914,0.300,0.355,0.600,0.528,0.000,2.075,-7.546,0.000,0.000,2.295,4.439,0.000,0.170,-1.014,5.817
1.924,0.300,0.368,0.600,0.484,0.000,1.991,-7.546,0.000,0.000,2.214,4.439,0.000,1.286,1.547,6.780
1.934,0.300,0.368,0.600,0.484,0.000,1.991,-7.546,0.000,0.000,2.214,4.439,0.000,1.286,1.547,6.780
1.949,0.300,0.400,0.600,0.417,0.000,1.591,-7.546,0.000,0.000,1.990,4.439,0.000,0.982,3.439,5.748
1.959,0.300,0.409,0.600,0.492,0.000,1.888,-7.546,0.000,0.000,2.145,4.439,0.000,2.714,-2.715,6.918
1.969,0.300,0.409,0.600,0.492,0.000,1.888,-7.546,0.000,0.000,2.145,4.439,0.000,2.714,-2.715,6.918
1.982,0.300,0.433,0.600,0.362,0.000,1.899,-7.546,0.000,0.000,2.290,4.439,0.000,-3.284,1.325,14.901
1.992,0.300,0.433,0.600,0.362,0.000,1.899,-6.938,0.000,0.000,2.290,9.369,0.000,-3.284,1.325,14.901
2.003,0.300,0.407,0.600,0.398,0.000,1.697,-6.938,0.000,0.000,2.629,9.369,0.000,-1.212,0.880,11.828
2.013,0.300,0.407,0.600,0.398,0.000,1.697,-6.938,0.000,0.000,2.629,9.369,0.000,-1.212,0.880,11.828
2.023,0.300,0.392,0.600,0.379,0.000,1.418,-9.124,0.000,0.000,2.801,15.164,0.000,-0.770,-0.912,11.182
2.033,0.300,0.392,0.600,0.379,0.000,1.418,-9.124,0.000,0.000,2.801,15.164,0.000,-0.770,-0.912,11.182
2.049,0.300,0.380,0.600,0.383,0.000,1.325,-9.124,0.000,0.000,2.772,15.164,0.000,-1.062,0.357,4.906
2.059,0.300,0.358,0.600,0.394,0.000,1.407,-9.124,0.000,0.000,2.643,15.164,0.000,-0.239,0.583,7.605
2.070,0.300,0.358,0.600,0.394,0.000,1.407,-9.124,0.000,0.000,2.643,15.164,0.000,-0.239,0.583,7.605
2.083,0.300,0.370,0.600,0.536,0.000,1.597,-9.124,0.000,0.000,2.425,15.164,0.000,0.124,0.196,8.405
2.093,0.300,0.370,0.600,0.536,0.000,1.597,5.745,0.000,0.000,2.425,21.662,0.000,0.124,0.196,8.405
2.104,0.300,0.370,0.600,0.536,0.000,1.597,5.745,0.000,0.000,2.425,21.662,0.000,0.124,0.196,8.405
2.114,0.300,0.370,0.600,0.536,0.000,1.597,5.745,0.000,0.000,2.425,21.662,0.000,0.124,0.196,8.405
2.125,0.300,0.370,0.600,0.536,0.000,1.597,5.745,0.000,0.000,2.425,21.662,0.000,0.124,0.196,8.405
2.135,0.300,0.370,0.600,0.536,0.000,1.597,5.745,0.000,0.000,2.425,21.662,0.000,0.124,0.196,8.405
2.146,0.300,0.370,0.600,0.536,0.000,1.597,5.745,0.000,0.000,2.425,21.662,0.000,0.124,0.196,8.405
2.157,0.300,0.370,0.600,0.536,0.000,1.597,5.745,0.000,0.000,2.425,21.662,0.000,0.124,0.196,8.405
2.167,0.300,0.370,0.600,0.536,0.000,1.597,5.745,0.000,0.000,2.425,21.662,0.000,0.124,0.196,8.405
2.178,0.300,0.370,0.600,0.536,0.000,1.597,5.745,0.000,0.000,2.425,21.662,0.000,0.124,0.196,8.405
2.189,0.300,0.370,0.600,0.536,0.000,1.597,5.745,0.000,0.000,2.425,21.662,0.000,0.124,0.196,8.405
2.199,0.300,0.370,0.600,0.536,0.000,1.597,5.745,0.000,0.000,2.425,21.662,0.000,0.124,0.196,8.405
2.210,0.300,0.370,0.600,0.536,0.000,1.597,5.745,0.000,0.000,2.425,21.662,0.000,0.124,0.196,8.405
2.220,0.300,0.370,0.600,0.536,0.000,1.597,5.745,0.000,0.000,2.425,21.662,0.000,0.124,0.196,8.405
2.230,0.300,0.370,0.600,0.536,0.000,1.597,5.745,0.000,0.000,2.425,21.662,0.000,0.124,0.196,8.405
2.240,0.300,0.370,0.600,0.536,0.000,1.597,5.745,0.000,0.000,2.425,21.662,0.000,0.124,0.196,8.405
2.250,0.300,0.370,0.600,0.536,0.000,1.597,5.745,0.000,0.000,2.425,21.662,0.000,0.124,0.196,8.405
2.267,0.300,0.370,0.600,0.536,0.000,1.597,5.745,0.000,0.000,2.425,21.662,0.000,0.124,0.196,8.405
2.277,0.300,0.370,0.600,0.536,0.000,1.597,-6.764,0.000,0.000,2.425,-12.382,0.000,0.124,0.196,8.405
2.287,0.300,0.370,0.600,0.536,0.000,1.597,-6.764,0.000,0.000,2.425,-12.382,0.000,0.124,0.196,8.405
2.299,0.300,0.370,0.600,0.536,0.000,1.597,22.221,0.000,0.000,2.425,0.637,0.000,0.124,0.196,8.405
2.309,0.300,0.370,0.600,0.536,0.000,1.597,22.221,0.000,0.000,2.425,0.637,0.000,0.124,0.196,8.405
2.320,0.300,0.370,0.600,0.536,0.000,1.597,-9.656,0.000,0.000,2.425,6.487,0.000,0.124,0.196,8.405
2.330,0.300,0.370,0.600,0.536,0.000,1.597,-9.656,0.000,0.000,2.425,6.487,0.000,0.124,0.196,8.405
2.340,0.300,0.370,0.600,0.536,0.000,1.597,-9.656,0.000,0.000,2.425,6.487,0.000,0.124,0.196,8.405
2.351,0.300,0.370,0.600,0.536,0.000,1.597,-9.656,0.000,0.000,2.425,6.487,0.000,0.124,0.196,8.405
2.367,0.300,0.370,0.600,0.536,0.000,1.597,-2.148,0.000,0.000,2.425,3.559,0.000,0.124,0.196,8.405
2.377,0.300,0.370,0.600,0.536,0.000,1.597,-2.148,0.000,0.000,2.425,3.559,0.000,0.124,0.196,8.405
2.387,0.300,0.370,0.600,0.536,0.000,1.597,-2.148,0.000,0.000,2.425,3.559,0.000,0.124,0.196,8.405
2.399,0.300,0.370,0.600,0.536,0.000,1.597,-3.422,0.000,0.000,2.425,0.919,0.000,0.124,0.196,8.405
2.410,0.300,0.370,0.600,0.536,0.000,1.597,3.794,0.000,0.000,2.425,-6.585,0.000,0.124,0.196,8.405
2.420,0.300,0.370,0.600,0.536,0.000,1.597,3.794,0.000,0.000,2.425,-6.585,0.000,0.124,0.196,8.405
2.433,0.300,0.370,0.600,0.536,0.000,1.597,4.733,0.000,0.000,2.425,-4.823,0.000,0.124,0.196,8.405
2.443,0.300,0.370,0.600,0.536,0.000,1.597,4.733,0.000,0.000,2.425,-4.823,0.000,0.124,0.196,8.405
2.454,0.300,0.370,0.600,0.536,0.000,1.597,4.733,0.000,0.000,2.425,-4.823,0.000,0.124,0.196,8.405
2.464,0.300,0.370,0.600,0.536,0.000,1.597,4.733,0.000,0.000,2.425,-4.823,0.000,0.124,0.196,8.405
2.474,0.300,0.370,0.600,0.536,0.000,1.597,4.733,0.000,0.000,2.425,-4.823,0.000,0.124,0.196,8.405
2.484,0.300,0.370,0.600,0.536,0.000,1.597,4.733,0.000,0.000,2.425,-4.823,0.000,0.124,0.196,8.405
2.494,0.300,0.370,0.600,0.536,0.000,1.597,0.387,0.000,0.000,2.425,-0.825,0.000,0.124,0.196,8.405
2.505,0.300,0.370,0.600,0.536,0.000,1.597,0.387,0.000,0.000,2.425,-0.825,0.000,0.124,0.196,8.405
2.515,0.300,0.370,0.600,0.536,0.000,1.597,-8.853,0.000,0.000,2.425,15.267,0.000,0.124,0.196,8.405
2.525,0.300,0.370,0.600,0.536,0.000,1.597,-8.853,0.000,0.000,2.425,15.267,0.000,0.124,0.196,8.405
2.536,0.300,0.370,0.600,0.536,0.000,1.597,-8.853,0.000,0.000,2.425,15.267,0.000,0.124,0.196,8.405
2.546,0.300,0.370,0.600,0.536,0.000,1.597,-8.853,0.000,0.000,2.425,15.267,0.000,0.124,0.196,8.405
2.557,0.300,0.370,0.600,0.536,0.000,1.597,-8.853,0.000,0.000,2.425,15.267,0.000,0.124,0.196,8.405
2.570,0.300,0.370,0.600,0.536,0.000,1.597,-8.853,0.000,0.000,2.425,15.267,0.000,0.124,0.196,8.405
2.580,0.300,0.370,0.600,0.536,0.000,1.597,-19.734,0.000,0.000,2.425,-2.411,0.000,0.124,0.196,8.405
2.591,0.300,0.370,0.600,0.536,0.000,1.597,-19.734,0.000,0.000,2.425,-2.411,0.000,0.124,0.196,8.405
2.602,0.300,0.370,0.600,0.536,0.000,1.597,-8.398,0.000,0.000,2.425,-1.488,0.000,0.124,0.196,8.405
2.612,0.300,0.370,0.600,0.536,0.000,1.597,-8.398,0.000,0.000,2.425,-1.488,0.000,0.124,0.196,8.405
2.622,0.300,0.370,0.600,0.536,0.000,1.597,-8.398,0.000,0.000,2.425,-1.488,0.000,0.124,0.196,8.405
2.633,0.300,0.370,0.600,0.536,0.000,1.597,-8.398,0.000,0.000,2.425,-1.488,0.000,0.124,0.196,8.405
2.650,0.300,0.370,0.600,0.536,0.000,1.597,-8.398,0.000,0.000,2.425,-1.488,0.000,0.124,0.196,8.405
2.660,0.300,0.370,0.600,0.536,0.000,1.597,-8.398,0.000,0.000,2.425,-1.488,0.000,0.124,0.196,8.405
2.670,0.300,0.370,0.600,0.536,0.000,1.597,-8.398,0.000,0.000,2.425,-1.488,0.000,0.124,0.196,8.405
2.683,0.300,0.370,0.600,0.536,0.000,1.597,-8.398,0.000,0.000,2.425,-1.488,0.000,0.124,0.196,8.405
2.693,0.300,0.370,0.600,0.536,0.000,1.597,-8.398,0.000,0.000,2.425,-1.488,0.000,0.124,0.196,8.405
2.704,0.300,0.370,0.600,0.536,0.000,1.597,-8.398,0.000,0.000,2.425,-1.488,0.000,0.124,0.196,8.405
2.715,0.300,0.370,0.600,0.536,0.000,1.597,-8.398,0.000,0.000,2.425,-1.488,0.000,0.124,0.196,8.405
2.725,0.300,0.370,0.600,0.536,0.000,1.597,-8.398,0.000,0.000,2.425,-1.488,0.000,0.124,0.196,8.405
2.735,0.300,0.370,0.600,0.536,0.000,1.597,-8.398,0.000,0.000,2.425,-1.488,0.000,0.124,0.196,8.405
2.746,0.300,0.370,0.600,0.536,0.000,1.597,-8.398,0.000,0.000,2.425,-1.488,0.000,0.124,0.196,8.405
2.756,0.300,0.370,0.600,0.536,0.000,1.597,-8.398,0.000,0.000,2.425,-1.488,0.000,0.124,0.196,8.405
2.766,0.300,0.370,0.600,0.536,0.000,1.597,-8.398,0.000,0.000,2.425,-1.488,0.000,0.124,0.196,8.405
2.776,0.300,0.370,0.600,0.536,0.000,1.597,-8.398,0.000,0.000,2.425,-1.488,0.000,0.124,0.196,8.405
2.787,0.300,0.370,0.600,0.536,0.000,1.597,-8.398,0.000,0.000,2.425,-1.488,0.000,0.124,0.196,8.405
2.797,0.300,0.370,0.600,0.536,0.000,1.597,-8.398,0.000,0.000,2.425,-1.488,0.000,0.124,0.196,8.405
2.807,0.300,0.370,0.600,0.536,0.000,1.597,-8.398,0.000,0.000,2.425,-1.488,0.000,0.124,0.196,8.405
2.818,0.300,0.370,0.600,0.536,0.000,1.597,-8.398,0.000,0.000,2.425,-1.488,0.000,0.124,0.196,8.405
2.828,0.300,0.370,0.600,0.536,0.000,1.597,-8.398,0.000,0.000,2.425,-1.488,0.000,0.124,0.196,8.405
2.838,0.300,0.370,0.600,0.536,0.000,1.597,-8.398,0.000,0.000,2.425,-1.488,0.000,0.124,0.196,8.405
2.849,0.300,0.370,0.600,0.536,0.000,1.597,-8.398,0.000,0.000,2.425,-1.488,0.000,0.124,0.196,8.405
2.866,0.300,0.370,0.600,0.536,0.000,1.597,-8.398,0.000,0.000,2.425,-1.488,0.000,0.124,0.196,8.405
2.877,0.300,0.370,0.600,0.536,0.000,1.597,35.894,0.000,0.000,2.425,3.198,0.000,0.124,0.196,8.405
2.887,0.300,0.370,0.600,0.536,0.000,1.597,35.894,0.000,0.000,2.425,3.198,0.000,0.124,0.196,8.405
2.899,0.300,0.370,0.600,0.536,0.000,1.597,-5.239,0.000,0.000,2.425,7.970,0.000,0.124,0.196,8.405
2.909,0.300,0.370,0.600,0.536,0.000,1.597,-5.314,0.000,0.000,2.425,3.402,0.000,0.124,0.196,8.405
2.919,0.300,0.370,0.600,0.536,0.000,1.597,-14.068,0.000,0.000,2.425,-5.741,0.000,0.124,0.196,8.405
2.930,0.300,0.370,0.600,0.536,0.000,1.597,-0.939,0.000,0.000,2.425,-15.495,0.000,0.124,0.196,8.405
2.940,0.300,0.370,0.600,0.536,0.000,1.597,-0.939,0.000,0.000,2.425,-15.495,0.000,0.124,0.196,8.405
2.950,0.300,0.370,0.600,0.536,0.000,1.597,4.856,0.000,0.000,2.425,3.318,0.000,0.124,0.196,8.405
2.961,0.300,0.370,0.600,0.536,0.000,1.597,4.856,0.000,0.000,2.425,3.318,0.000,0.124,0.196,8.405
2.971,0.300,0.370,0.600,0.536,0.000,1.597,4.856,0.000,0.000,2.425,3.318,0.000,0.124,0.196,8.405
2.982,0.300,0.370,0.600,0.536,0.000,1.597,4.856,0.000,0.000,2.425,3.318,0.000,0.124,0.196,8.405
2.992,0.300,0.370,0.600,0.536,0.000,1.597,4.856,0.000,0.000,2.425,3.318,0.000,0.124,0.196,8.405
3.002,0.300,0.370,0.600,0.536,0.000,1.597,4.856,0.000,0.000,2.425,3.318,0.000,0.124,0.196,8.405
3.013,0.300,0.370,0.600,0.536,0.000,1.597,-4.304,0.000,0.000,2.425,9.825,0.000,0.124,0.196,8.405
3.023,0.300,0.370,0.600,0.536,0.000,1.597,-4.304,0.000,0.000,2.425,9.825,0.000,0.124,0.196,8.405
3.033,0.300,0.370,0.600,0.536,0.000,1.597,-4.304,0.000,0.000,2.425,9.825,0.000,0.124,0.196,8.405
3.043,0.300,0.370,0.600,0.536,0.000,1.597,-4.304,0.000,0.000,2.425,9.825,0.000,0.124,0.196,8.405
3.053,0.300,0.370,0.600,0.536,0.000,1.597,-4.304,0.000,0.000,2.425,9.825,0.000,0.124,0.196,8.405
3.064,0.300,0.370,0.600,0.536,0.000,1.597,-4.304,0.000,0.000,2.425,9.825,0.000,0.124,0.196,8.405
3.074,0.300,0.370,0.600,0.536,0.000,1.597,-4.304,0.000,0.000,2.425,9.825,0.000,0.124,0.196,8.405
3.084,0.300,0.370,0.600,0.536,0.000,1.597,-4.304,0.000,0.000,2.425,9.825,0.000,0.124,0.196,8.405
3.099,0.300,0.370,0.600,0.536,0.000,1.597,-21.348,0.000,0.000,2.425,3.879,0.000,0.124,0.196,8.405
3.109,0.300,0.370,0.600,0.536,0.000,1.597,-21.348,0.000,0.000,2.425,3.879,0.000,0.124,0.196,8.405
3.119,0.300,0.370,0.600,0.536,0.000,1.597,41.680,0.000,0.000,2.425,34.226,0.000,0.124,0.196,8.405
3.132,0.300,0.370,0.600,0.536,0.000,1.597,41.680,0.000,0.000,2.425,34.226,0.000,0.124,0.196,8.405
3.142,0.300,0.370,0.600,0.536,0.000,1.597,5.010,0.000,0.000,2.425,3.930,0.000,0.124,0.196,8.405
3.152,0.300,0.370,0.600,0.536,0.000,1.597,19.082,0.000,0.000,2.425,6.904,0.000,0.124,0.196,8.405
3.166,0.300,0.370,0.600,0.536,0.000,1.597,19.082,0.000,0.000,2.425,6.904,0.000,0.124,0.196,8.405
3.176,0.300,0.370,0.600,0.536,0.000,1.597,19.082,0.000,0.000,2.425,6.904,0.000,0.124,0.196,8.405
3.186,0.300,0.370,0.600,0.536,0.000,1.597,19.082,0.000,0.000,2.425,6.904,0.000,0.124,0.196,8.405
3.196,0.300,0.370,0.600,0.536,0.000,1.597,-0.479,0.000,0.000,2.425,1.779,0.000,0.124,0.196,8.405
3.206,0.300,0.370,0.600,0.536,0.000,1.597,-0.479,0.000,0.000,2.425,1.779,0.000,0.124,0.196,8.405
3.217,0.300,0.370,0.600,0.536,0.000,1.597,-1.059,0.000,0.000,2.425,-13.085,0.000,0.124,0.196,8.405
3.232,0.300,0.370,0.600,0.536,0.000,1.597,-1.059,0.000,0.000,2.425,-13.085,0.000,0.124,0.196,8.405
3.242,0.300,0.370,0.600,0.536,0.000,1.597,-0.554,0.000,0.000,2.425,10.966,0.000,0.124,0.196,8.405
3.252,0.300,0.370,0.600,0.536,0.000,1.597,-0.554,0.000,0.000,2.425,10.966,0.000,0.124,0.196,8.405
3.265,0.300,0.370,0.600,0.536,0.000,1.597,-0.554,0.000,0.000,2.425,10.966,0.000,0.124,0.196,8.405
3.276,0.300,0.370,0.600,0.536,0.000,1.597,-0.554,0.000,0.000,2.425,10.966,0.000,0.124,0.196,8.405
3.286,0.300,0.370,0.600,0.536,0.000,1.597,-0.554,0.000,0.000,2.425,10.966,0.000,0.124,0.196,8.405
3.296,0.300,0.370,0.600,0.536,0.000,1.597,-0.554,0.000,0.000,2.425,10.966,0.000,0.124,0.196,8.405
3.306,0.300,0.370,0.600,0.536,0.000,1.597,-0.554,0.000,0.000,2.425,10.966,0.000,0.124,0.196,8.405
3.316,0.300,0.370,0.600,0.536,0.000,1.597,-0.554,0.000,0.000,2.425,10.966,0.000,0.124,0.196,8.405
3.326,0.300,0.370,0.600,0.536,0.000,1.597,-0.554,0.000,0.000,2.425,10.966,0.000,0.124,0.196,8.405
